[
  {
    "id": "688ef379-b6f5-4afa-b2ec-e39813d8ee87",
    "nome": "Manhuaçu - MG (1)",
    "lat": -20.2574434,
    "lng": -42.0340769,
    "raio": 500
  },
  {
    "id": "648429eb-f34f-4d72-8e40-068adce9be28",
    "nome": "Cachoeiro de Itapemirim - ES (1)",
    "lat": -20.8480779,
    "lng": -41.1187072,
    "raio": 500
  },
  {
    "id": "a3612ccf-1a47-4020-8524-4870675fe9a2",
    "nome": "Manhuaçu - MG (2)",
    "lat": -20.2574434,
    "lng": -42.0340769,
    "raio": 500
  },
  {
    "id": "41203abd-92da-4a6b-a0d2-53e3ea6d9f52",
    "nome": "Campo Grande - MS",
    "lat": -20.464,
    "lng": -54.6163,
    "raio": 500
  },
  {
    "id": "a27e6d2a-915c-4d07-bfba-8bb8aa2ab3d5",
    "nome": "Vila Velha - ES",
    "lat": -20.3694,
    "lng": -40.3066,
    "raio": 500
  },
  {
    "id": "985df625-c09d-4b85-b90f-3af12158b814",
    "nome": "Guarapari - ES",
    "lat": -20.6469745,
    "lng": -40.4917864,
    "raio": 500
  },
  {
    "id": "7ff4ce95-fb8c-4f5f-b72a-dd0722f6b6dc",
    "nome": "São José dos Campos - SP",
    "lat": -23.1868,
    "lng": -45.8855,
    "raio": 500
  },
  {
    "id": "8102200d-151a-4bbf-9b19-06365bf3eaf0",
    "nome": "Teixeira de Freitas - BA",
    "lat": -17.5385,
    "lng": -39.7452,
    "raio": 500
  },
  {
    "id": "8362113a-b6dd-4850-b05a-c08591f4bfc1",
    "nome": "Formiga - MG",
    "lat": -20.4648,
    "lng": -45.4267,
    "raio": 500
  },
  {
    "id": "6564f58c-178f-4ccc-9922-d91b729ca6dc",
    "nome": "Guanambi - BA",
    "lat": -14.2231,
    "lng": -42.7799,
    "raio": 500
  },
  {
    "id": "f9f7c1af-93b8-473a-aac2-0966e2df60da",
    "nome": "Campos dos Goytacazes - RJ",
    "lat": -21.7546,
    "lng": -41.3242,
    "raio": 500
  },
  {
    "id": "d18192de-bc9b-4d78-b51d-fb1dff1be2cf",
    "nome": "João Câmara - RN",
    "lat": -5.535,
    "lng": -35.8151,
    "raio": 500
  },
  {
    "id": "fdb45e3f-3674-42b6-abef-354f547230c5",
    "nome": "Itaperuna - RJ",
    "lat": -21.2158,
    "lng": -41.8798,
    "raio": 500
  },
  {
    "id": "df78281d-c48c-49f5-bf27-0fa3068b6e2b",
    "nome": "Governador Valadares - MG (1)",
    "lat": -18.8574155,
    "lng": -41.9439276,
    "raio": 500
  },
  {
    "id": "7c8497f7-26fa-4c36-97dc-9589e41b175c",
    "nome": "Gurupi - TO",
    "lat": -11.7279,
    "lng": -49.068,
    "raio": 500
  },
  {
    "id": "fca82731-bba7-4401-baab-83dfa1feef51",
    "nome": "Uruará - PA",
    "lat": -3.7185,
    "lng": -53.7385,
    "raio": 500
  },
  {
    "id": "1de23701-89b5-46c9-a1f2-3f5d26fe9944",
    "nome": "Porto Velho - RO",
    "lat": -8.7495,
    "lng": -63.8735,
    "raio": 500
  },
  {
    "id": "7ba83ec1-346c-4114-bf18-37a538163a99",
    "nome": "Resplendor - MG",
    "lat": -19.3254,
    "lng": -41.2555,
    "raio": 500
  },
  {
    "id": "88f5ed75-d037-4bec-bd58-02227fda5c29",
    "nome": "Maricá - RJ",
    "lat": -22.9089,
    "lng": -42.8172,
    "raio": 500
  },
  {
    "id": "86043858-2e64-4b1b-b4d8-763a16dde3d8",
    "nome": "Bauru - SP",
    "lat": -22.3174,
    "lng": -49.069,
    "raio": 500
  },
  {
    "id": "bd574db2-c047-4fb1-9235-421b807458dc",
    "nome": "Cachoeiro de Itapemirim - ES (2)",
    "lat": -20.8480779,
    "lng": -41.1187072,
    "raio": 500
  },
  {
    "id": "f360fcc1-cff6-4f27-880e-ad2dde502b1c",
    "nome": "Jundiaí - SP",
    "lat": -23.1888,
    "lng": -46.8845,
    "raio": 500
  },
  {
    "id": "49e66dcf-9f3d-496d-8031-58cfd6cfb23d",
    "nome": "Sorocaba - SP",
    "lat": -23.5003,
    "lng": -47.4583,
    "raio": 500
  },
  {
    "id": "7f621d22-cdf8-4e2f-bbbe-0a2c3e3f0c7e",
    "nome": "Resende - RJ",
    "lat": -22.4419,
    "lng": -44.4205,
    "raio": 500
  },
  {
    "id": "ac17a7d0-cdac-4b59-9823-0c32f84d9262",
    "nome": "Caratinga - MG",
    "lat": -19.7901,
    "lng": -42.1405,
    "raio": 500
  },
  {
    "id": "d7c6909f-7574-4773-90f0-ea09be34c213",
    "nome": "Peçanha - MG",
    "lat": -18.5479,
    "lng": -42.559,
    "raio": 500
  },
  {
    "id": "756c151f-9d69-4544-af90-e69fb6683f91",
    "nome": "Conselheiro Pena - MG",
    "lat": -19.1721,
    "lng": -41.472,
    "raio": 500
  },
  {
    "id": "fab70d28-c404-433f-9023-6e218c2d8569",
    "nome": "Ipanema - MG",
    "lat": -19.8,
    "lng": -41.7139,
    "raio": 500
  },
  {
    "id": "b8eaae0e-f783-4b94-bcfc-634d1d0cd106",
    "nome": "Carangola - MG",
    "lat": -20.7336,
    "lng": -42.0299,
    "raio": 500
  },
  {
    "id": "34860c06-3f7c-41d1-a413-35a3da1a9e44",
    "nome": "Ipatinga - MG",
    "lat": -19.4778,
    "lng": -42.5271,
    "raio": 500
  },
  {
    "id": "4638e213-0bde-4186-9f5f-833cf1701061",
    "nome": "Rondonópolis - MT",
    "lat": -16.4604,
    "lng": -54.6397,
    "raio": 500
  },
  {
    "id": "0b4185fa-8256-46f7-b0c8-bf803200c359",
    "nome": "Morrinhos - GO",
    "lat": -17.7334,
    "lng": -49.1059,
    "raio": 500
  },
  {
    "id": "e4432c1a-4800-48c1-bad2-ec0b534dc212",
    "nome": "Itu - SP",
    "lat": -23.2638,
    "lng": -47.2998,
    "raio": 500
  },
  {
    "id": "d5308434-73ca-473d-8f71-e2b39d7b0fd7",
    "nome": "Campina Grande - PB",
    "lat": -7.2247,
    "lng": -35.8771,
    "raio": 500
  },
  {
    "id": "94e21296-dda5-4231-a9d1-23ffb7023729",
    "nome": "São João Evangelista - MG",
    "lat": -18.4945,
    "lng": -42.759,
    "raio": 500
  },
  {
    "id": "3af57a19-f192-4d0e-bd4b-6b0d734636b8",
    "nome": "Mauá - SP",
    "lat": -23.667,
    "lng": -46.4617,
    "raio": 500
  },
  {
    "id": "4e996c99-7ae6-45a9-9f5f-67d30429e00b",
    "nome": "Jales - SP",
    "lat": -20.2672,
    "lng": -50.5492,
    "raio": 500
  },
  {
    "id": "a92edff6-b63b-4292-ae46-50d4bde27ccc",
    "nome": "Governador Valadares - MG (2)",
    "lat": -18.8574155,
    "lng": -41.9439276,
    "raio": 500
  },
  {
    "id": "5ae5aaa9-7e16-44fa-ac83-f5fb1f486fba",
    "nome": "Guarulhos - SP",
    "lat": -23.4676,
    "lng": -46.5278,
    "raio": 500
  },
  {
    "id": "8210007f-d882-45f8-aee3-14b4ed3ec1b8",
    "nome": "Curitiba - PR",
    "lat": -25.4296,
    "lng": -49.2713,
    "raio": 500
  },
  {
    "id": "afc20690-c68f-435e-8e8f-da36037e2d0a",
    "nome": "Pato Branco - PR",
    "lat": -26.2296,
    "lng": -52.6712,
    "raio": 500
  },
  {
    "id": "834a69c7-dcfc-4b0d-b966-5fd189221fb0",
    "nome": "Ponta Grossa - PR",
    "lat": -25.0892,
    "lng": -50.1602,
    "raio": 500
  },
  {
    "id": "c936d150-ad65-429e-8b15-ddb26c6fc539",
    "nome": "Macaé - RJ",
    "lat": -22.2828,
    "lng": -41.9649,
    "raio": 500
  },
  {
    "id": "609812d2-083d-4afd-84e5-41dcdc99be5f",
    "nome": "Araruama - RJ",
    "lat": -22.7447,
    "lng": -42.3231,
    "raio": 500
  },
  {
    "id": "15a8794b-454a-4d42-a837-9a955fcf489d",
    "nome": "Cabo Frio - RJ",
    "lat": -22.7378,
    "lng": -42.0241,
    "raio": 500
  },
  {
    "id": "4abe5b69-52b6-4a55-abe2-4cb715459893",
    "nome": "Guaçuí - ES",
    "lat": -20.7798548,
    "lng": -41.6834209,
    "raio": 500
  },
  {
    "id": "2b586b8c-5ffc-428f-9b10-b1d03456d866",
    "nome": "Botucatu - SP",
    "lat": -22.888,
    "lng": -48.4411,
    "raio": 500
  },
  {
    "id": "ab8e23c4-4f16-4d6d-bf37-017af14c3e22",
    "nome": "Indaiatuba - SP",
    "lat": -23.0908,
    "lng": -47.2181,
    "raio": 500
  },
  {
    "id": "8aadccc3-1ca1-4900-a061-5c8c1a46f690",
    "nome": "Itumbiara - GO",
    "lat": -18.4136,
    "lng": -49.2173,
    "raio": 500
  },
  {
    "id": "da18565c-7e25-4ea1-9cd7-70f09ab6b767",
    "nome": "São Roque - SP",
    "lat": -23.5305,
    "lng": -47.1355,
    "raio": 500
  },
  {
    "id": "4ec9532d-0b7a-4a0b-aba8-dfc7ef0d449f",
    "nome": "Jaú - SP",
    "lat": -22.2933,
    "lng": -48.5593,
    "raio": 500
  },
  {
    "id": "92e51590-5de6-4e1b-8cbd-af0907b449ad",
    "nome": "Barra do Piraí - RJ",
    "lat": -22.4243,
    "lng": -43.8935,
    "raio": 500
  }
]